districts:
  - district: Balaka
    region: Southern
    latitude: -14.9200
    longitude: 34.9667
    capital: Balaka
    lakes: null
    mountains: null
    population_2023: 310000
    area_km2: 2869
    population_density: 108
    elevation_m: 600
    year_established: 1998
    languages:
      - Chichewa
      - Yao
    climate: Tropical
    timezone: CAT (UTC+2)

  - district: Blantyre
    region: Southern
    latitude: -15.7861
    longitude: 35.0085
    capital: Blantyre
    lakes: null
    mountains: Soche, Ndirande Hills
    population_2023: 1200000
    area_km2: 2012
    population_density: 596
    elevation_m: 1030
    year_established: 1907
    languages:
      - Chichewa
      - Lomwe
    climate: Tropical Savanna
    timezone: CAT (UTC+2)

  - district: Chikwawa
    region: Southern
    latitude: -16.0426
    longitude: 34.7928
    capital: Chikwawa
    lakes: null
    mountains: null
    population_2023: 430000
    area_km2: 4545
    population_density: 95
    elevation_m: 300
    year_established: 1910
    languages:
      - Chichewa
      - Sena
    climate: Tropical
    timezone: CAT (UTC+2)

  - district: Chiradzulu
    region: Southern
    latitude: -15.6833
    longitude: 35.0667
    capital: Chiradzulu
    lakes: null
    mountains: null
    population_2023: 300000
    area_km2: 767
    population_density: 391
    elevation_m: 1000
    year_established: 1910
    languages:
      - Chichewa
      - Lomwe
    climate: Tropical
    timezone: CAT (UTC+2)

  - district: Chitipa
    region: Northern
    latitude: -9.6833
    longitude: 33.2667
    capital: Chitipa
    lakes: null
    mountains: Viphya Plateau
    population_2023: 250000
    area_km2: 4395
    population_density: 57
    elevation_m: 1500
    year_established: 1907
    languages:
      - Tumbuka
      - Ngonde
    climate: Highland Tropical
    timezone: CAT (UTC+2)

  - district: Dedza
    region: Central
    latitude: -14.3667
    longitude: 34.3333
    capital: Dedza
    lakes: null
    mountains: Dedza Mountain
    population_2023: 800000
    area_km2: 3624
    population_density: 221
    elevation_m: 1600
    year_established: 1907
    languages:
      - Chichewa
    climate: Cool Highlands
    timezone: CAT (UTC+2)

  - district: Dowa
    region: Central
    latitude: -13.0167
    longitude: 33.9167
    capital: Dowa
    lakes: null
    mountains: null
    population_2023: 400000
    area_km2: 3140
    population_density: 127
    elevation_m: 1100
    year_established: 1998
    languages:
      - Chichewa
      - Tumbuka
    climate: Tropical
    timezone: CAT (UTC+2)

  - district: Karonga
    region: Northern
    latitude: -9.9333
    longitude: 33.9333
    capital: Karonga
    lakes:
      - Lake Malawi
    mountains: Nyika Highlands
    population_2023: 400000
    area_km2: 3355
    population_density: 119
    elevation_m: 520
    year_established: 1940
    languages:
      - Tumbuka
      - Nyakyusa
    climate: Tropical Wet
    timezone: CAT (UTC+2)

  - district: Kasungu
    region: Central
    latitude: -13.0333
    longitude: 33.4667
    capital: Kasungu
    lakes: null
    mountains: null
    population_2023: 900000
    area_km2: 7907
    population_density: 114
    elevation_m: 1300
    year_established: 1907
    languages:
      - Chichewa
      - Tumbuka
    climate: Tropical
    timezone: CAT (UTC+2)

  - district: Lilongwe
    region: Central
    latitude: -13.9833
    longitude: 33.7741
    capital: Lilongwe
    lakes: null
    mountains: Dzalanyama Hills
    population_2023: 1400000
    area_km2: 6159
    population_density: 227
    elevation_m: 1050
    year_established: 1907
    languages:
      - Chichewa
    climate: Subtropical
    timezone: CAT (UTC+2)

  - district: Machinga
    region: Southern
    latitude: -14.9000
    longitude: 35.3000
    capital: Machinga
    lakes: null
    mountains: null
    population_2023: 400000
    area_km2: 3634
    population_density: 110
    elevation_m: 600
    year_established: 1998
    languages:
      - Chichewa
      - Yao
    climate: Tropical
    timezone: CAT (UTC+2)

  - district: Mangochi
    region: Southern
    latitude: -14.4763
    longitude: 35.2620
    capital: Mangochi
    lakes:
      - Malawi
      - Malombe
    mountains: Mangochi Hills
    population_2023: 1200000
    area_km2: 6273
    population_density: 191
    elevation_m: 480
    year_established: 1909
    languages:
      - Yao
      - Chichewa
    climate: Tropical Dry
    timezone: CAT (UTC+2)

  - district: Mchinji
    region: Central
    latitude: -13.8000
    longitude: 33.5000
    capital: Mchinji
    lakes: null
    mountains: null
    population_2023: 530000
    area_km2: 3370
    population_density: 157
    elevation_m: 1100
    year_established: 1984
    languages:
      - Chichewa
      - Tumbuka
    climate: Tropical
    timezone: CAT (UTC+2)

  - district: Mulanje
    region: Southern
    latitude: -16.0333
    longitude: 35.6667
    capital: Mulanje
    lakes: null
    mountains: Mulanje Mountain
    population_2023: 600000
    area_km2: 2056
    population_density: 292
    elevation_m: 1300
    year_established: 1909
    languages:
      - Lomwe
      - Chichewa
    climate: Tropical Wet
    timezone: CAT (UTC+2)

  - district: Mwanza
    region: Southern
    latitude: -15.9500
    longitude: 34.9333
    capital: Mwanza
    lakes: null
    mountains: null
    population_2023: 260000
    area_km2: 1318
    population_density: 197
    elevation_m: 600
    year_established: 1998
    languages:
      - Chichewa
      - Lomwe
    climate: Tropical
    timezone: CAT (UTC+2)

  - district: Mzimba
    region: Northern
    latitude: -11.9000
    longitude: 33.6000
    capital: Mzuzu
    lakes: null
    mountains: Vipya Plateau
    population_2023: 900000
    area_km2: 10430
    population_density: 86
    elevation_m: 1300
    year_established: 1907
    languages:
      - Tumbuka
      - Ngoni
    climate: Cool Highlands
    timezone: CAT (UTC+2)

  - district: Nkhata Bay
    region: Northern
    latitude: -11.5833
    longitude: 34.3333
    capital: Nkhata Bay
    lakes:
      - Lake Malawi
    mountains: null
    population_2023: 240000
    area_km2: 1779
    population_density: 135
    elevation_m: 500
    year_established: 1910
    languages:
      - Tumbuka
      - Tonga
    climate: Tropical
    timezone: CAT (UTC+2)

  - district: Nkhotakota
    region: Central
    latitude: -12.9167
    longitude: 34.3000
    capital: Nkhotakota
    lakes:
      - Lake Malawi
    mountains: Chipata Mountain
    population_2023: 400000
    area_km2: 4259
    population_density: 94
    elevation_m: 480
    year_established: 1966
    languages:
      - Chewa
      - Tonga
    climate: Tropical Dry
    timezone: CAT (UTC+2)

  - district: Nsanje
    region: Southern
    latitude: -16.9167
    longitude: 35.2667
    capital: Nsanje
    lakes: null
    mountains: null
    population_2023: 260000
    area_km2: 1384
    population_density: 188
    elevation_m: 80
    year_established: 1910
    languages:
      - Sena
      - Chichewa
    climate: Tropical
    timezone: CAT (UTC+2)

  - district: Ntcheu
    region: Central
    latitude: -14.1833
    longitude: 34.6167
    capital: Ntcheu
    lakes: null
    mountains: null
    population_2023: 470000
    area_km2: 4167
    population_density: 113
    elevation_m: 1100
    year_established: 1907
    languages:
      - Chichewa
    climate: Tropical
    timezone: CAT (UTC+2)

  - district: Ntchisi
    region: Central
    latitude: -13.0833
    longitude: 34.0000
    capital: Ntchisi
    lakes: null
    mountains: null
    population_2023: 300000
    area_km2: 1489
    population_density: 201
    elevation_m: 1200
    year_established: 1980
    languages:
      - Chichewa
    climate: Tropical
    timezone: CAT (UTC+2)

  - district: Phalombe
    region: Southern
    latitude: -15.7500
    longitude: 35.7000
    capital: Phalombe
    lakes: null
    mountains: null
    population_2023: 350000
    area_km2: 1587
    population_density: 221
    elevation_m: 700
    year_established: 1965
    languages:
      - Lomwe
      - Chichewa
    climate: Tropical
    timezone: CAT (UTC+2)

  - district: Rumphi
    region: Northern
    latitude: -11.4167
    longitude: 33.9500
    capital: Rumphi
    lakes: null
    mountains: Viphya Plateau
    population_2023: 220000
    area_km2: 4661
    population_density: 47
    elevation_m: 1200
    year_established: 1907
    languages:
      - Tumbuka
      - Ngoni
    climate: Highland Tropical
    timezone: CAT (UTC+2)

  - district: Salima
    region: Central
    latitude: -13.7833
    longitude: 34.4333
    capital: Salima
    lakes:
      - Lake Malawi
    mountains: null
    population_2023: 500000
    area_km2: 2196
    population_density: 228
    elevation_m: 510
    year_established: 1907
    languages:
      - Chichewa
    climate: Tropical Dry
    timezone: CAT (UTC+2)

  - district: Thyolo
    region: Southern
    latitude: -16.0833
    longitude: 35.1667
    capital: Thyolo
    lakes: null
    mountains: Mulanje Mountain (partly)
    population_2023: 500000
    area_km2: 1501
    population_density: 333
    elevation_m: 1100
    year_established: 1907
    languages:
      - Lomwe
      - Chichewa
    climate: Tropical Wet
    timezone: CAT (UTC+2)

  - district: Zomba
    region: Southern
    latitude: -15.3833
    longitude: 35.3167
    capital: Zomba
    lakes:
      - Lake Chilwa
    mountains: Zomba Plateau
    population_2023: 700000
    area_km2: 2580
    population_density: 271
    elevation_m: 900
    year_established: 1907
    languages:
      - Lomwe
      - Chichewa
    climate: Tropical Wet
    timezone: CAT (UTC+2)
